$GPZDA,183200,31,12,2018,-02,00*65
$GPAPB,V,A,,,N,,,,,,,,,,N*7F
$GPDTM,W84,,0.0000,N,0.0000,E,,W84*41
$GPGGA,183201.04,3757.6596,N,02333.4543,E,1,10,1.5,31,M,35,M,,*5D
$GPRMC,183201.04,A,3757.6596,N,02333.4543,E,0.00,000.1,311218,3.96,E,A*30
$GPGLL,3757.6596,N,02333.4543,E,183201.04,A,A*69
$GPGBS,183201.04,,,,,0.00,,*7C
$GPVTG,000.1,T,356.1,M,0.00,N,0.00,K,A*23
$GPRMB,,,,,,,,,,,,,,N*04
$GPZDA,183202,31,12,2018,-02,00*67
$GPAPB,V,A,,,N,,,,,,,,,,N*7F
$GPDTM,W84,,0.0000,N,0.0000,E,,W84*41
$GPGGA,183201.81,3757.6596,N,02333.4543,E,1,10,1.5,31,M,35,M,,*50
$GPRMC,183201.81,A,3757.6596,N,02333.4543,E,0.00,000.1,311218,3.96,E,A*3D
$GPGLL,3757.6596,N,02333.4543,E,183201.81,A,A*64
$GPGBS,183201.81,,,,,0.00,,*71
$GPVTG,000.1,T,356.1,M,0.00,N,0.00,K,A*23
$GPRMB,,,,,,,,,,,,,,N*04
$GPZDA,183202,31,12,2018,-02,00*67
$GPAPB,V,A,,,N,,,,,,,,,,N*7F
$GPDTM,W84,,0.0000,N,0.0000,E,,W84*41
$GPGGA,183202.60,3757.6596,N,02333.4543,E,1,10,1.5,31,M,35,M,,*5C
$GPRMC,183202.60,A,3757.6596,N,02333.4543,E,0.00,000.1,311218,3.96,E,A*31
$GPGLL,3757.6596,N,02333.4543,E,183202.60,A,A*68
$GPGBS,183202.60,,,,,0.00,,*7D
$GPVTG,000.1,T,356.1,M,0.00,N,0.00,K,A*23
$GPRMB,,,,,,,,,,,,,,N*04
$GPZDA,183203,31,12,2018,-02,00*66
$GPAPB,V,A,,,N,,,,,,,,,,N*7F
$GPDTM,W84,,0.0000,N,0.0000,E,,W84*41
$GPGGA,183204.18,3757.6595,N,02333.4542,E,1,10,1.5,31,M,35,M,,*57
$GPRMC,183204.18,A,3757.6595,N,02333.4542,E,0.00,000.1,311218,3.96,E,A*3A
$GPGLL,3757.6595,N,02333.4542,E,183204.18,A,A*63
$GPGBS,183204.18,,,,,0.00,,*74
$GPVTG,000.1,T,356.1,M,0.00,N,0.00,K,A*23
$GPRMB,,,,,,,,,,,,,,N*04
$GPZDA,183205,31,12,2018,-02,00*60
$GPAPB,V,A,,,N,,,,,,,,,,N*7F
$GPDTM,W84,,0.0000,N,0.0000,E,,W84*41
$GPGGA,183204.97,3757.6595,N,02333.4541,E,1,10,1.5,31,M,35,M,,*53
$GPRMC,183204.97,A,3757.6595,N,02333.4541,E,0.00,000.1,311218,3.96,E,A*3E
$GPGLL,3757.6595,N,02333.4541,E,183204.97,A,A*67
$GPGBS,183204.97,,,,,0.00,,*73
$GPVTG,000.1,T,356.1,M,0.00,N,0.00,K,A*23
$GPRMB,,,,,,,,,,,,,,N*04
$GPZDA,183206,31,12,2018,-02,00*63
$GPAPB,V,A,,,N,,,,,,,,,,N*7F
$GPDTM,W84,,0.0000,N,0.0000,E,,W84*41
$GPGGA,183205.76,3757.6595,N,02333.4541,E,1,10,1.5,31,M,35,M,,*5D
$GPRMC,183205.76,A,3757.6595,N,02333.4541,E,0.00,000.1,311218,3.96,E,A*30
$GPGLL,3757.6595,N,02333.4541,E,183205.76,A,A*69
$GPGBS,183205.76,,,,,0.00,,*7D
$GPVTG,000.1,T,356.1,M,0.00,N,0.00,K,A*23
$GPRMB,,,,,,,,,,,,,,N*04
$GPZDA,183206,31,12,2018,-02,00*63
$GPAPB,V,A,,,N,,,,,,,,,,N*7F
$GPDTM,W84,,0.0000,N,0.0000,E,,W84*41
$GPGGA,183206.56,3757.6594,N,02333.4540,E,1,10,1.5,31,M,35,M,,*5C
$GPRMC,183206.56,A,3757.6594,N,02333.4540,E,0.00,000.1,311218,3.96,E,A*31
$GPGLL,3757.6594,N,02333.4540,E,183206.56,A,A*68
$GPGBS,183206.56,,,,,0.00,,*7C
$GPVTG,000.1,T,356.1,M,0.00,N,0.00,K,A*23
$GPRMB,,,,,,,,,,,,,,N*04
$GPZDA,183207,31,12,2018,-02,00*62
$GPAPB,V,A,,,N,,,,,,,,,,N*7F
$GPDTM,W84,,0.0000,N,0.0000,E,,W84*41
$GPGGA,183208.16,3757.6594,N,02333.4539,E,1,10,1.5,32,M,35,M,,*5B
$GPRMC,183208.16,A,3757.6594,N,02333.4539,E,0.00,000.1,311218,3.96,E,A*35
$GPGLL,3757.6594,N,02333.4539,E,183208.16,A,A*6C
$GPGBS,183208.16,,,,,0.00,,*76
$GPVTG,000.1,T,356.1,M,0.00,N,0.00,K,A*23
$GPRMB,,,,,,,,,,,,,,N*04
$GPZDA,183209,31,12,2018,-02,00*6C
$GPAPB,V,A,,,N,,,,,,,,,,N*7F
$GPDTM,W84,,0.0000,N,0.0000,E,,W84*41
$GPGGA,183208.94,3757.6594,N,02333.4539,E,1,10,1.5,32,M,35,M,,*51
$GPRMC,183208.94,A,3757.6594,N,02333.4539,E,0.00,000.1,311218,3.96,E,A*3F
$GPGLL,3757.6594,N,02333.4539,E,183208.94,A,A*66
$GPGBS,183208.94,,,,,0.00,,*7C
$GPVTG,000.1,T,356.1,M,0.00,N,0.00,K,A*23
$GPRMB,,,,,,,,,,,,,,N*04
$GPZDA,183210,31,12,2018,-02,00*64
$GPAPB,V,A,,,N,,,,,,,,,,N*7F
$GPDTM,W84,,0.0000,N,0.0000,E,,W84*41
$GPGGA,183209.72,3757.6594,N,02333.4538,E,1,10,1.5,32,M,35,M,,*59
$GPRMC,183209.72,A,3757.6594,N,02333.4538,E,0.00,000.1,311218,3.96,E,A*37
$GPGLL,3757.6594,N,02333.4538,E,183209.72,A,A*6E
$GPGBS,183209.72,,,,,0.00,,*75
$GPVTG,000.1,T,356.1,M,0.00,N,0.00,K,A*23
$GPRMB,,,,,,,,,,,,,,N*04
$GPZDA,183210,31,12,2018,-02,00*64
$GPAPB,V,A,,,N,,,,,,,,,,N*7F
$GPDTM,W84,,0.0000,N,0.0000,E,,W84*41
$GPGGA,183211.29,3757.6593,N,02333.4537,E,1,10,1.5,32,M,35,M,,*56
$GPRMC,183211.29,A,3757.6593,N,02333.4537,E,0.00,000.1,311218,3.96,E,A*38
$GPGLL,3757.6593,N,02333.4537,E,183211.29,A,A*61
$GPGBS,183211.29,,,,,0.00,,*72
$GPVTG,000.1,T,356.1,M,0.00,N,0.00,K,A*23
$GPRMB,,,,,,,,,,,,,,N*04
$GPZDA,183211,31,12,2018,-02,00*65
$GPAPB,V,A,,,N,,,,,,,,,,N*7F
$GPDTM,W84,,0.0000,N,0.0000,E,,W84*41
$GPGGA,183212.07,3757.6593,N,02333.4537,E,1,10,1.5,32,M,35,M,,*59
$GPRMC,183212.07,A,3757.6593,N,02333.4537,E,0.00,000.1,311218,3.96,E,A*37
$GPGLL,3757.6593,N,02333.4537,E,183212.07,A,A*6E
$GPGBS,183212.07,,,,,0.00,,*7D
$GPVTG,000.1,T,356.1,M,0.00,N,0.00,K,A*23
$GPRMB,,,,,,,,,,,,,,N*04
$GPZDA,183213,31,12,2018,-02,00*67
$GPAPB,V,A,,,N,,,,,,,,,,N*7F
$GPDTM,W84,,0.0000,N,0.0000,E,,W84*41
$GPGGA,183212.86,3757.6593,N,02333.4537,E,1,10,1.5,32,M,35,M,,*50
$GPRMC,183212.86,A,3757.6593,N,02333.4537,E,0.00,000.1,311218,3.96,E,A*3E
$GPGLL,3757.6593,N,02333.4537,E,183212.86,A,A*67
$GPGBS,183212.86,,,,,0.00,,*74
$GPVTG,000.1,T,356.1,M,0.00,N,0.00,K,A*23
$GPRMB,,,,,,,,,,,,,,N*04
$GPZDA,183214,31,12,2018,-02,00*60
$GPAPB,V,A,,,N,,,,,,,,,,N*7F
$GPDTM,W84,,0.0000,N,0.0000,E,,W84*41
$GPGGA,183213.65,3757.6593,N,02333.4536,E,1,10,1.5,32,M,35,M,,*5D
$GPRMC,183213.65,A,3757.6593,N,02333.4536,E,0.00,000.1,311218,3.96,E,A*33
$GPGLL,3757.6593,N,02333.4536,E,183213.65,A,A*6A
$GPGBS,183213.65,,,,,0.00,,*78
$GPVTG,000.1,T,356.1,M,0.00,N,0.00,K,A*23
$GPRMB,,,,,,,,,,,,,,N*04
$GPZDA,183214,31,12,2018,-02,00*60
$GPAPB,V,A,,,N,,,,,,,,,,N*7F
$GPDTM,W84,,0.0000,N,0.0000,E,,W84*41
$GPGGA,183215.25,3757.6593,N,02333.4535,E,1,10,1.5,33,M,35,M,,*5D
$GPRMC,183215.25,A,3757.6593,N,02333.4535,E,0.00,000.1,311218,3.96,E,A*32
$GPGLL,3757.6593,N,02333.4535,E,183215.25,A,A*6B
$GPGBS,183215.25,,,,,0.00,,*7A
$GPVTG,000.1,T,356.1,M,0.00,N,0.00,K,A*23
$GPRMB,,,,,,,,,,,,,,N*04
$GPZDA,183215,31,12,2018,-02,00*61
$GPAPB,V,A,,,N,,,,,,,,,,N*7F
$GPDTM,W84,,0.0000,N,0.0000,E,,W84*41
$GPGGA,183216.04,3757.6593,N,02333.4535,E,1,10,1.5,33,M,35,M,,*5D
$GPRMC,183216.04,A,3757.6593,N,02333.4535,E,0.00,000.1,311218,3.96,E,A*32
$GPGLL,3757.6593,N,02333.4535,E,183216.04,A,A*6B
$GPGBS,183216.04,,,,,0.00,,*7A
$GPVTG,000.1,T,356.1,M,0.00,N,0.00,K,A*23
$GPRMB,,,,,,,,,,,,,,N*04
$GPZDA,183217,31,12,2018,-02,00*63
$GPAPB,V,A,,,N,,,,,,,,,,N*7F
$GPDTM,W84,,0.0000,N,0.0000,E,,W84*41
$GPGGA,183216.84,3757.6593,N,02333.4535,E,1,10,1.5,33,M,35,M,,*55
$GPRMC,183216.84,A,3757.6593,N,02333.4535,E,0.00,000.1,311218,3.96,E,A*3A
$GPGLL,3757.6593,N,02333.4535,E,183216.84,A,A*63
$GPGBS,183216.84,,,,,0.00,,*72
$GPVTG,000.1,T,356.1,M,0.00,N,0.00,K,A*23
$GPRMB,,,,,,,,,,,,,,N*04
$GPZDA,183218,31,12,2018,-02,00*6C
$GPAPB,V,A,,,N,,,,,,,,,,N*7F
$GPDTM,W84,,0.0000,N,0.0000,E,,W84*41
$GPGGA,183217.64,3757.6593,N,02333.4534,E,1,10,1.5,33,M,35,M,,*5B
$GPRMC,183217.64,A,3757.6593,N,02333.4534,E,0.00,000.1,311218,3.96,E,A*34
$GPGLL,3757.6593,N,02333.4534,E,183217.64,A,A*6D
$GPGBS,183217.64,,,,,0.00,,*7D
$GPVTG,000.1,T,356.1,M,0.00,N,0.00,K,A*23
$GPRMB,,,,,,,,,,,,,,N*04
$GPZDA,183218,31,12,2018,-02,00*6C
$GPAPB,V,A,,,N,,,,,,,,,,N*7F
$GPDTM,W84,,0.0000,N,0.0000,E,,W84*41
$GPGGA,183219.24,3757.6592,N,02333.4534,E,1,10,1.5,33,M,35,M,,*50
$GPRMC,183219.24,A,3757.6592,N,02333.4534,E,0.00,000.1,311218,3.96,E,A*3F
$GPGLL,3757.6592,N,02333.4534,E,183219.24,A,A*66
$GPGBS,183219.24,,,,,0.00,,*77
$GPVTG,000.1,T,356.1,M,0.00,N,0.00,K,A*23
$GPRMB,,,,,,,,,,,,,,N*04
$GPZDA,183220,31,12,2018,-02,00*67
$GPAPB,V,A,,,N,,,,,,,,,,N*7F
$GPDTM,W84,,0.0000,N,0.0000,E,,W84*41
$GPGGA,183220.03,3757.6592,N,02333.4533,E,1,10,1.5,33,M,35,M,,*58
$GPRMC,183220.03,A,3757.6592,N,02333.4533,E,0.00,000.1,311218,3.96,E,A*37
$GPGLL,3757.6592,N,02333.4533,E,183220.03,A,A*6E
$GPGBS,183220.03,,,,,0.00,,*78
$GPVTG,000.1,T,356.1,M,0.00,N,0.00,K,A*23
$GPRMB,,,,,,,,,,,,,,N*04
$GPZDA,183221,31,12,2018,-02,00*66
$GPAPB,V,A,,,N,,,,,,,,,,N*7F
$GPDTM,W84,,0.0000,N,0.0000,E,,W84*41
$GPGGA,183220.84,3757.6592,N,02333.4533,E,1,10,1.5,33,M,35,M,,*57
$GPRMC,183220.84,A,3757.6592,N,02333.4533,E,0.00,000.1,311218,3.96,E,A*38
$GPGLL,3757.6592,N,02333.4533,E,183220.84,A,A*61
$GPGBS,183220.84,,,,,0.00,,*77
$GPVTG,000.1,T,356.1,M,0.00,N,0.00,K,A*23
$GPRMB,,,,,,,,,,,,,,N*04
$GPZDA,183222,31,12,2018,-02,00*65
$GPAPB,V,A,,,N,,,,,,,,,,N*7F
$GPDTM,W84,,0.0000,N,0.0000,E,,W84*41
$GPGGA,183221.63,3757.6592,N,02333.4533,E,1,10,1.5,33,M,35,M,,*5F
$GPRMC,183221.63,A,3757.6592,N,02333.4533,E,0.00,000.1,311218,3.96,E,A*30
$GPGLL,3757.6592,N,02333.4533,E,183221.63,A,A*69
$GPGBS,183221.63,,,,,0.00,,*7F
$GPVTG,000.1,T,356.1,M,0.00,N,0.00,K,A*23
$GPRMB,,,,,,,,,,,,,,N*04
$GPZDA,183222,31,12,2018,-02,00*65
$GPAPB,V,A,,,N,,,,,,,,,,N*7F
$GPDTM,W84,,0.0000,N,0.0000,E,,W84*41
$GPGGA,183223.24,3757.6592,N,02333.4532,E,1,10,1.5,33,M,35,M,,*5F
$GPRMC,183223.24,A,3757.6592,N,02333.4532,E,0.00,000.1,311218,3.96,E,A*30
$GPGLL,3757.6592,N,02333.4532,E,183223.24,A,A*69
$GPGBS,183223.24,,,,,0.00,,*7E
$GPVTG,000.1,T,356.1,M,0.00,N,0.00,K,A*23
$GPRMB,,,,,,,,,,,,,,N*04
$GPZDA,183224,31,12,2018,-02,00*63
$GPAPB,V,A,,,N,,,,,,,,,,N*7F
$GPDTM,W84,,0.0000,N,0.0000,E,,W84*41
$GPGGA,183224.03,3757.6592,N,02333.4532,E,1,10,1.5,33,M,35,M,,*5D
$GPRMC,183224.03,A,3757.6592,N,02333.4532,E,0.00,000.1,311218,3.96,E,A*32
$GPGLL,3757.6592,N,02333.4532,E,183224.03,A,A*6B
$GPGBS,183224.03,,,,,0.00,,*7C
$GPVTG,000.1,T,356.1,M,0.00,N,0.00,K,A*23
$GPRMB,,,,,,,,,,,,,,N*04
$GPZDA,183225,31,12,2018,-02,00*62
$GPAPB,V,A,,,N,,,,,,,,,,N*7F
$GPDTM,W84,,0.0000,N,0.0000,E,,W84*41
$GPGGA,183224.83,3757.6592,N,02333.4532,E,1,10,1.5,34,M,35,M,,*52
$GPRMC,183224.83,A,3757.6592,N,02333.4532,E,0.00,000.1,311218,3.96,E,A*3A
$GPGLL,3757.6592,N,02333.4532,E,183224.83,A,A*63
$GPGBS,183224.83,,,,,0.00,,*74
$GPVTG,000.1,T,356.1,M,0.00,N,0.00,K,A*23
$GPRMB,,,,,,,,,,,,,,N*04
$GPZDA,183226,31,12,2018,-02,00*61
$GPAPB,V,A,,,N,,,,,,,,,,N*7F
$GPDTM,W84,,0.0000,N,0.0000,E,,W84*41
$GPGGA,183225.63,3757.6592,N,02333.4532,E,1,10,1.5,34,M,35,M,,*5D
$GPRMC,183225.63,A,3757.6592,N,02333.4532,E,0.00,000.1,311218,3.96,E,A*35
$GPGLL,3757.6592,N,02333.4532,E,183225.63,A,A*6C
$GPGBS,183225.63,,,,,0.00,,*7B
$GPVTG,000.1,T,356.1,M,0.00,N,0.00,K,A*23
$GPRMB,,,,,,,,,,,,,,N*04
$GPZDA,183226,31,12,2018,-02,00*61
$GPAPB,V,A,,,N,,,,,,,,,,N*7F
$GPDTM,W84,,0.0000,N,0.0000,E,,W84*41
$GPGGA,183227.23,3757.6592,N,02333.4531,E,1,10,1.5,34,M,35,M,,*58
$GPRMC,183227.23,A,3757.6592,N,02333.4531,E,0.00,000.1,311218,3.96,E,A*30
$GPGLL,3757.6592,N,02333.4531,E,183227.23,A,A*69
$GPGBS,183227.23,,,,,0.00,,*7D
$GPVTG,000.1,T,356.1,M,0.00,N,0.00,K,A*23
$GPRMB,,,,,,,,,,,,,,N*04
$GPZDA,183228,31,12,2018,-02,00*6F
$GPAPB,V,A,,,N,,,,,,,,,,N*7F
$GPDTM,W84,,0.0000,N,0.0000,E,,W84*41
$GPGGA,183228.02,3757.6592,N,02333.4531,E,1,10,1.5,34,M,35,M,,*54
$GPRMC,183228.02,A,3757.6592,N,02333.4531,E,0.00,000.1,311218,3.96,E,A*3C
$GPGLL,3757.6592,N,02333.4531,E,183228.02,A,A*65
$GPGBS,183228.02,,,,,0.00,,*71
$GPVTG,000.1,T,356.1,M,0.00,N,0.00,K,A*23
$GPRMB,,,,,,,,,,,,,,N*04
$GPZDA,183229,31,12,2018,-02,00*6E
$GPAPB,V,A,,,N,,,,,,,,,,N*7F
$GPDTM,W84,,0.0000,N,0.0000,E,,W84*41
$GPGGA,183228.83,3757.6592,N,02333.4531,E,1,10,1.5,34,M,35,M,,*5D
$GPRMC,183228.83,A,3757.6592,N,02333.4531,E,0.00,000.1,311218,3.96,E,A*35
$GPGLL,3757.6592,N,02333.4531,E,183228.83,A,A*6C
$GPGBS,183228.83,,,,,0.00,,*78
$GPVTG,000.1,T,356.1,M,0.00,N,0.00,K,A*23
$GPRMB,,,,,,,,,,,,,,N*04
$GPZDA,183230,31,12,2018,-02,00*66
$GPAPB,V,A,,,N,,,,,,,,,,N*7F
$GPDTM,W84,,0.0000,N,0.0000,E,,W84*41
$GPGGA,183229.61,3757.6592,N,02333.4531,E,1,10,1.5,34,M,35,M,,*50
$GPRMC,183229.61,A,3757.6592,N,02333.4531,E,0.00,000.1,311218,3.96,E,A*38
$GPGLL,3757.6592,N,02333.4531,E,183229.61,A,A*61
$GPGBS,183229.61,,,,,0.00,,*75
$GPVTG,000.1,T,356.1,M,0.00,N,0.00,K,A*23
$GPRMB,,,,,,,,,,,,,,N*04
$GPZDA,183230,31,12,2018,-02,00*66
$GPAPB,V,A,,,N,,,,,,,,,,N*7F
$GPDTM,W84,,0.0000,N,0.0000,E,,W84*41
$GPGGA,183231.18,3757.6592,N,02333.4531,E,1,10,1.5,34,M,35,M,,*57
$GPRMC,183231.18,A,3757.6592,N,02333.4531,E,0.00,000.1,311218,3.96,E,A*3F
$GPGLL,3757.6592,N,02333.4531,E,183231.18,A,A*66
$GPGBS,183231.18,,,,,0.00,,*72
$GPVTG,000.1,T,356.1,M,0.00,N,0.00,K,A*23
$GPRMB,,,,,,,,,,,,,,N*04
$GPZDA,183232,31,12,2018,-02,00*64
$GPAPB,V,A,,,N,,,,,,,,,,N*7F
$GPDTM,W84,,0.0000,N,0.0000,E,,W84*41
$GPGGA,183231.96,3757.6592,N,02333.4531,E,1,10,1.5,34,M,35,M,,*51
$GPRMC,183231.96,A,3757.6592,N,02333.4531,E,0.00,000.1,311218,3.96,E,A*39
$GPGLL,3757.6592,N,02333.4531,E,183231.96,A,A*60
$GPGBS,183231.96,,,,,0.00,,*74
$GPVTG,000.1,T,356.1,M,0.00,N,0.00,K,A*23
$GPRMB,,,,,,,,,,,,,,N*04
$GPZDA,183233,31,12,2018,-02,00*65
$GPAPB,V,A,,,N,,,,,,,,,,N*7F
$GPDTM,W84,,0.0000,N,0.0000,E,,W84*41
$GPGGA,183232.74,3757.6591,N,02333.4530,E,1,10,1.5,34,M,35,M,,*5C
$GPRMC,183232.74,A,3757.6591,N,02333.4530,E,0.00,000.1,311218,3.96,E,A*34
$GPGLL,3757.6591,N,02333.4530,E,183232.74,A,A*6D
$GPGBS,183232.74,,,,,0.00,,*7B
$GPVTG,000.1,T,356.1,M,0.00,N,0.00,K,A*23
$GPRMB,,,,,,,,,,,,,,N*04
$GPZDA,183233,31,12,2018,-02,00*65
$GPAPB,V,A,,,N,,,,,,,,,,N*7F
$GPDTM,W84,,0.0000,N,0.0000,E,,W84*41
$GPGGA,183234.32,3757.6591,N,02333.4530,E,1,10,1.5,34,M,35,M,,*58
$GPRMC,183234.32,A,3757.6591,N,02333.4530,E,0.00,000.1,311218,3.96,E,A*30
$GPGLL,3757.6591,N,02333.4530,E,183234.32,A,A*69
$GPGBS,183234.32,,,,,0.00,,*7F
$GPVTG,000.1,T,356.1,M,0.00,N,0.00,K,A*23
$GPRMB,,,,,,,,,,,,,,N*04
$GPZDA,183234,31,12,2018,-02,00*62
$GPAPB,V,A,,,N,,,,,,,,,,N*7F
$GPDTM,W84,,0.0000,N,0.0000,E,,W84*41
$GPGGA,183235.12,3757.6591,N,02333.4530,E,1,10,1.5,34,M,35,M,,*5B
$GPRMC,183235.12,A,3757.6591,N,02333.4530,E,0.00,000.1,311218,3.96,E,A*33
$GPGLL,3757.6591,N,02333.4530,E,183235.12,A,A*6A
$GPGBS,183235.12,,,,,0.00,,*7C
$GPVTG,000.1,T,356.1,M,0.00,N,0.00,K,A*23
$GPRMB,,,,,,,,,,,,,,N*04
$GPZDA,183236,31,12,2018,-02,00*60
$GPAPB,V,A,,,N,,,,,,,,,,N*7F
$GPDTM,W84,,0.0000,N,0.0000,E,,W84*41
$GPGGA,183235.92,3757.6591,N,02333.4530,E,1,10,1.5,34,M,35,M,,*53
$GPRMC,183235.92,A,3757.6591,N,02333.4530,E,0.00,000.1,311218,3.96,E,A*3B
$GPGLL,3757.6591,N,02333.4530,E,183235.92,A,A*62
$GPGBS,183235.92,,,,,0.00,,*74
$GPVTG,000.1,T,356.1,M,0.00,N,0.00,K,A*23
$GPRMB,,,,,,,,,,,,,,N*04
$GPZDA,183237,31,12,2018,-02,00*61
$GPAPB,V,A,,,N,,,,,,,,,,N*7F
$GPDTM,W84,,0.0000,N,0.0000,E,,W84*41
$GPGGA,183236.71,3757.6591,N,02333.4530,E,1,10,1.5,34,M,35,M,,*5D
$GPRMC,183236.71,A,3757.6591,N,02333.4530,E,0.00,000.1,311218,3.96,E,A*35
$GPGLL,3757.6591,N,02333.4530,E,183236.71,A,A*6C
$GPGBS,183236.71,,,,,0.00,,*7A
$GPVTG,000.1,T,356.1,M,0.00,N,0.00,K,A*23
$GPRMB,,,,,,,,,,,,,,N*04
$GPZDA,183237,31,12,2018,-02,00*61
$GPAPB,V,A,,,N,,,,,,,,,,N*7F
$GPDTM,W84,,0.0000,N,0.0000,E,,W84*41
$GPGGA,183238.31,3757.6591,N,02333.4529,E,1,10,1.5,34,M,35,M,,*5F
$GPRMC,183238.31,A,3757.6591,N,02333.4529,E,0.00,000.1,311218,3.96,E,A*37
$GPGLL,3757.6591,N,02333.4529,E,183238.31,A,A*6E
$GPGBS,183238.31,,,,,0.00,,*70
$GPVTG,000.1,T,356.1,M,0.00,N,0.00,K,A*23
$GPRMB,,,,,,,,,,,,,,N*04
$GPZDA,183239,31,12,2018,-02,00*6F
$GPAPB,V,A,,,N,,,,,,,,,,N*7F
$GPDTM,W84,,0.0000,N,0.0000,E,,W84*41
$GPGGA,183239.11,3757.6591,N,02333.4529,E,1,10,1.5,35,M,35,M,,*5D
$GPRMC,183239.11,A,3757.6591,N,02333.4529,E,0.00,000.1,311218,3.96,E,A*34
$GPGLL,3757.6591,N,02333.4529,E,183239.11,A,A*6D
$GPGBS,183239.11,,,,,0.00,,*73
$GPVTG,000.1,T,356.1,M,0.00,N,0.00,K,A*23
$GPRMB,,,,,,,,,,,,,,N*04
$GPZDA,183240,31,12,2018,-02,00*61
$GPAPB,V,A,,,N,,,,,,,,,,N*7F
$GPDTM,W84,,0.0000,N,0.0000,E,,W84*41
$GPGGA,183239.90,3757.6590,N,02333.4529,E,1,10,1.5,35,M,35,M,,*55
$GPRMC,183239.90,A,3757.6590,N,02333.4529,E,0.00,000.1,311218,3.96,E,A*3C
$GPGLL,3757.6590,N,02333.4529,E,183239.90,A,A*65
$GPGBS,183239.90,,,,,0.00,,*7A
$GPVTG,000.1,T,356.1,M,0.00,N,0.00,K,A*23
$GPRMB,,,,,,,,,,,,,,N*04
$GPZDA,183241,31,12,2018,-02,00*60
$GPAPB,V,A,,,N,,,,,,,,,,N*7F
$GPDTM,W84,,0.0000,N,0.0000,E,,W84*41
$GPGGA,183240.70,3757.6590,N,02333.4529,E,1,10,1.5,35,M,35,M,,*55
$GPRMC,183240.70,A,3757.6590,N,02333.4529,E,0.00,000.1,311218,3.96,E,A*3C
$GPGLL,3757.6590,N,02333.4529,E,183240.70,A,A*65
$GPGBS,183240.70,,,,,0.00,,*7A
$GPVTG,000.1,T,356.1,M,0.00,N,0.00,K,A*23
$GPRMB,,,,,,,,,,,,,,N*04
$GPZDA,183241,31,12,2018,-02,00*60
$GPAPB,V,A,,,N,,,,,,,,,,N*7F
$GPDTM,W84,,0.0000,N,0.0000,E,,W84*41
$GPGGA,183242.29,3757.6590,N,02333.4528,E,1,10,1.5,35,M,35,M,,*5A
$GPRMC,183242.29,A,3757.6590,N,02333.4528,E,0.00,000.1,311218,3.96,E,A*33
$GPGLL,3757.6590,N,02333.4528,E,183242.29,A,A*6A
$GPGBS,183242.29,,,,,0.00,,*74
$GPVTG,000.1,T,356.1,M,0.00,N,0.00,K,A*23
$GPRMB,,,,,,,,,,,,,,N*04
$GPZDA,183243,31,12,2018,-02,00*62
$GPAPB,V,A,,,N,,,,,,,,,,N*7F
$GPDTM,W84,,0.0000,N,0.0000,E,,W84*41
$GPGGA,183243.06,3757.6590,N,02333.4528,E,1,10,1.5,35,M,35,M,,*56
$GPRMC,183243.06,A,3757.6590,N,02333.4528,E,0.00,000.1,311218,3.96,E,A*3F
$GPGLL,3757.6590,N,02333.4528,E,183243.06,A,A*66
$GPGBS,183243.06,,,,,0.00,,*78
$GPVTG,000.1,T,356.1,M,0.00,N,0.00,K,A*23
$GPRMB,,,,,,,,,,,,,,N*04
$GPZDA,183244,31,12,2018,-02,00*65
$GPAPB,V,A,,,N,,,,,,,,,,N*7F
$GPDTM,W84,,0.0000,N,0.0000,E,,W84*41
$GPGGA,183243.85,3757.6590,N,02333.4528,E,1,10,1.5,35,M,35,M,,*5D
$GPRMC,183243.85,A,3757.6590,N,02333.4528,E,0.00,000.1,311218,3.96,E,A*34
$GPGLL,3757.6590,N,02333.4528,E,183243.85,A,A*6D
$GPGBS,183243.85,,,,,0.00,,*73
$GPVTG,000.1,T,356.1,M,0.00,N,0.00,K,A*23
$GPRMB,,,,,,,,,,,,,,N*04
$GPZDA,183245,31,12,2018,-02,00*64
$GPAPB,V,A,,,N,,,,,,,,,,N*7F
$GPDTM,W84,,0.0000,N,0.0000,E,,W84*41
$GPGGA,183245.42,3757.6590,N,02333.4528,E,1,10,1.5,35,M,35,M,,*50
$GPRMC,183245.42,A,3757.6590,N,02333.4528,E,0.00,000.1,311218,3.96,E,A*39
$GPGLL,3757.6590,N,02333.4528,E,183245.42,A,A*60
$GPGBS,183245.42,,,,,0.00,,*7E
$GPVTG,000.1,T,356.1,M,0.00,N,0.00,K,A*23
$GPRMB,,,,,,,,,,,,,,N*04
$GPZDA,183245,31,12,2018,-02,00*64
$GPAPB,V,A,,,N,,,,,,,,,,N*7F
$GPDTM,W84,,0.0000,N,0.0000,E,,W84*41
$GPGGA,183246.22,3757.6590,N,02333.4528,E,1,10,1.5,35,M,35,M,,*55
$GPRMC,183246.22,A,3757.6590,N,02333.4528,E,0.00,000.1,311218,3.96,E,A*3C
$GPGLL,3757.6590,N,02333.4528,E,183246.22,A,A*65
$GPGBS,183246.22,,,,,0.00,,*7B
$GPVTG,000.1,T,356.1,M,0.00,N,0.00,K,A*23
$GPRMB,,,,,,,,,,,,,,N*04
$GPZDA,183247,31,12,2018,-02,00*66
$GPAPB,V,A,,,N,,,,,,,,,,N*7F
$GPDTM,W84,,0.0000,N,0.0000,E,,W84*41
$GPGGA,183247.00,3757.6590,N,02333.4529,E,1,10,1.5,35,M,35,M,,*55
$GPRMC,183247.00,A,3757.6590,N,02333.4529,E,0.00,000.1,311218,3.96,E,A*3C
$GPGLL,3757.6590,N,02333.4529,E,183247.00,A,A*65
$GPGBS,183247.00,,,,,0.00,,*7A
$GPVTG,000.1,T,356.1,M,0.00,N,0.00,K,A*23
$GPRMB,,,,,,,,,,,,,,N*04
$GPZDA,183248,31,12,2018,-02,00*69
$GPAPB,V,A,,,N,,,,,,,,,,N*7F
$GPDTM,W84,,0.0000,N,0.0000,E,,W84*41
$GPGGA,183247.79,3757.6590,N,02333.4529,E,1,10,1.5,35,M,35,M,,*5B
$GPRMC,183247.79,A,3757.6590,N,02333.4529,E,0.00,000.1,311218,3.96,E,A*32
$GPGLL,3757.6590,N,02333.4529,E,183247.79,A,A*6B
$GPGBS,183247.79,,,,,0.00,,*74
$GPVTG,000.1,T,356.1,M,0.00,N,0.00,K,A*23
$GPRMB,,,,,,,,,,,,,,N*04
$GPZDA,183248,31,12,2018,-02,00*69
$GPAPB,V,A,,,N,,,,,,,,,,N*7F
$GPDTM,W84,,0.0000,N,0.0000,E,,W84*41
$GPGGA,183249.39,3757.6590,N,02333.4529,E,1,10,1.5,35,M,35,M,,*51
$GPRMC,183249.39,A,3757.6590,N,02333.4529,E,0.00,000.1,311218,3.96,E,A*38
$GPGLL,3757.6590,N,02333.4529,E,183249.39,A,A*61
$GPGBS,183249.39,,,,,0.00,,*7E
$GPVTG,000.1,T,356.1,M,0.00,N,0.00,K,A*23
$GPRMB,,,,,,,,,,,,,,N*04
$GPZDA,183249,31,12,2018,-02,00*68
$GPAPB,V,A,,,N,,,,,,,,,,N*7F
$GPDTM,W84,,0.0000,N,0.0000,E,,W84*41
$GPGGA,183250.20,3757.6590,N,02333.4529,E,1,10,1.5,35,M,35,M,,*51
$GPRMC,183250.20,A,3757.6590,N,02333.4529,E,0.00,000.1,311218,3.96,E,A*38
$GPGLL,3757.6590,N,02333.4529,E,183250.20,A,A*61
$GPGBS,183250.20,,,,,0.00,,*7E
$GPVTG,000.1,T,356.1,M,0.00,N,0.00,K,A*23
$GPRMB,,,,,,,,,,,,,,N*04
$GPZDA,183251,31,12,2018,-02,00*61
$GPAPB,V,A,,,N,,,,,,,,,,N*7F
$GPDTM,W84,,0.0000,N,0.0000,E,,W84*41
$GPGGA,183250.99,3757.6589,N,02333.4529,E,1,10,1.5,35,M,35,M,,*5B
$GPRMC,183250.99,A,3757.6589,N,02333.4529,E,0.00,000.1,311218,3.96,E,A*32
$GPGLL,3757.6589,N,02333.4529,E,183250.99,A,A*6B
$GPGBS,183250.99,,,,,0.00,,*7C
$GPVTG,000.1,T,356.1,M,0.00,N,0.00,K,A*23
$GPRMB,,,,,,,,,,,,,,N*04
$GPZDA,183252,31,12,2018,-02,00*62
$GPAPB,V,A,,,N,,,,,,,,,,N*7F
$GPDTM,W84,,0.0000,N,0.0000,E,,W84*41
$GPGGA,183251.77,3757.6589,N,02333.4529,E,1,10,1.5,35,M,35,M,,*5A
$GPRMC,183251.77,A,3757.6589,N,02333.4529,E,0.00,000.1,311218,3.96,E,A*33
$GPGLL,3757.6589,N,02333.4529,E,183251.77,A,A*6A
$GPGBS,183251.77,,,,,0.00,,*7D
$GPVTG,000.1,T,356.1,M,0.00,N,0.00,K,A*23
$GPRMB,,,,,,,,,,,,,,N*04
$GPZDA,183252,31,12,2018,-02,00*62
$GPAPB,V,A,,,N,,,,,,,,,,N*7F
$GPDTM,W84,,0.0000,N,0.0000,E,,W84*41
$GPGGA,183253.33,3757.6589,N,02333.4529,E,1,10,1.5,35,M,35,M,,*58
$GPRMC,183253.33,A,3757.6589,N,02333.4529,E,0.00,000.1,311218,3.96,E,A*31
$GPGLL,3757.6589,N,02333.4529,E,183253.33,A,A*68
$GPGBS,183253.33,,,,,0.00,,*7F
$GPVTG,000.1,T,356.1,M,0.00,N,0.00,K,A*23
$GPRMB,,,,,,,,,,,,,,N*04
$GPZDA,183254,31,12,2018,-02,00*64
$GPAPB,V,A,,,N,,,,,,,,,,N*7F
$GPDTM,W84,,0.0000,N,0.0000,E,,W84*41
$GPGGA,183254.12,3757.6589,N,02333.4529,E,1,10,1.5,35,M,35,M,,*5C
$GPRMC,183254.12,A,3757.6589,N,02333.4529,E,0.00,000.1,311218,3.96,E,A*35
$GPGLL,3757.6589,N,02333.4529,E,183254.12,A,A*6C
$GPGBS,183254.12,,,,,0.00,,*7B
$GPVTG,000.1,T,356.1,M,0.00,N,0.00,K,A*23
$GPRMB,,,,,,,,,,,,,,N*04
$GPZDA,183255,31,12,2018,-02,00*65
$GPAPB,V,A,,,N,,,,,,,,,,N*7F
$GPDTM,W84,,0.0000,N,0.0000,E,,W84*41
$GPGGA,183254.90,3757.6589,N,02333.4529,E,1,10,1.5,35,M,35,M,,*56
$GPRMC,183254.90,A,3757.6589,N,02333.4529,E,0.00,000.1,311218,3.96,E,A*3F
$GPGLL,3757.6589,N,02333.4529,E,183254.90,A,A*66
$GPGBS,183254.90,,,,,0.00,,*71
$GPVTG,000.1,T,356.1,M,0.00,N,0.00,K,A*23
$GPRMB,,,,,,,,,,,,,,N*04
$GPZDA,183256,31,12,2018,-02,00*66
$GPAPB,V,A,,,N,,,,,,,,,,N*7F
$GPDTM,W84,,0.0000,N,0.0000,E,,W84*41
$GPGGA,183256.47,3757.6589,N,02333.4528,E,1,10,1.5,35,M,35,M,,*5F
$GPRMC,183256.47,A,3757.6589,N,02333.4528,E,0.00,000.1,311218,3.96,E,A*36
$GPGLL,3757.6589,N,02333.4528,E,183256.47,A,A*6F
$GPGBS,183256.47,,,,,0.00,,*79
$GPVTG,000.1,T,356.1,M,0.00,N,0.00,K,A*23
$GPRMB,,,,,,,,,,,,,,N*04
$GPZDA,183256,31,12,2018,-02,00*66
$GPAPB,V,A,,,N,,,,,,,,,,N*7F
$GPDTM,W84,,0.0000,N,0.0000,E,,W84*41
$GPGGA,183257.28,3757.6588,N,02333.4528,E,1,10,1.5,35,M,35,M,,*56
$GPRMC,183257.28,A,3757.6588,N,02333.4528,E,0.00,000.1,311218,3.96,E,A*3F
$GPGLL,3757.6588,N,02333.4528,E,183257.28,A,A*66
$GPGBS,183257.28,,,,,0.00,,*71
$GPVTG,000.1,T,356.1,M,0.00,N,0.00,K,A*23
$GPRMB,,,,,,,,,,,,,,N*04
$GPZDA,183258,31,12,2018,-02,00*68
$GPAPB,V,A,,,N,,,,,,,,,,N*7F
$GPDTM,W84,,0.0000,N,0.0000,E,,W84*41
$GPGGA,183258.07,3757.6588,N,02333.4528,E,1,10,1.5,35,M,35,M,,*54
$GPRMC,183258.07,A,3757.6588,N,02333.4528,E,0.00,000.1,311218,3.96,E,A*3D
$GPGLL,3757.6588,N,02333.4528,E,183258.07,A,A*64
$GPGBS,183258.07,,,,,0.00,,*73
$GPVTG,000.1,T,356.1,M,0.00,N,0.00,K,A*23
$GPRMB,,,,,,,,,,,,,,N*04
$GPZDA,183259,31,12,2018,-02,00*69
$GPAPB,V,A,,,N,,,,,,,,,,N*7F
$GPDTM,W84,,0.0000,N,0.0000,E,,W84*41
$GPGGA,183258.87,3757.6588,N,02333.4528,E,1,10,1.5,35,M,35,M,,*5C
$GPRMC,183258.87,A,3757.6588,N,02333.4528,E,0.00,000.1,311218,3.96,E,A*35
$GPGLL,3757.6588,N,02333.4528,E,183258.87,A,A*6C
$GPGBS,183258.87,,,,,0.00,,*7B
$GPVTG,000.1,T,356.1,M,0.00,N,0.00,K,A*23
$GPRMB,,,,,,,,,,,,,,N*04
$GPZDA,183300,31,12,2018,-02,00*64
$GPAPB,V,A,,,N,,,,,,,,,,N*7F
$GPDTM,W84,,0.0000,N,0.0000,E,,W84*41
$GPGGA,183300.43,3757.6588,N,02333.4528,E,1,10,1.5,35,M,35,M,,*58
$GPRMC,183300.43,A,3757.6588,N,02333.4528,E,0.00,000.1,311218,3.96,E,A*31
$GPGLL,3757.6588,N,02333.4528,E,183300.43,A,A*68